GPGSA,A,3,08,19,07,26,,,,,,,,,9.3,7.4,5.6*3B
$GPRMC,023102.000,A,4531.5820,N,12240.5660,W,0.00,187.60,310312,,,A*78
$GPVTG,187.60,T,,M,0.00,N,0.0,K,A*05
$GPGGA,023103.000,4531.5820,N,12240.5660,W,1,04,7.4,12.6,M,-19.4,M,,0000*52
$GPGSA,A,3,08,19,07,26,,,,,,,,,9.3,7.4,5.6*3B
$GPGSV,3,1,12,08,73,338,36,07,55,085,31,28,51,234,27,19,34,064,29*79
$GPGSV,3,2,12,26,33,311,28,13,22,153,,05,20,268,26,11,09,108,*7C
$GPGSV,3,3,12,03,09,038,,10,07,215,,17,05,184,,06,00,031,*71
$GPRMC,023103.000,A,4531.5820,N,12240.5660,W,0.00,187.60,310312,,,A*79
$GPVTG,187.60,T,,M,0.00,N,0.0,K,A*05
$GPGGA,023104.000,4531.5820,N,12240.5660,W,1,04,7.4,12.6,M,-19.4,M,,0000*55
$GPGSA,A,3,08,19,07,26,,,,,,,,,9.3,7.4,5.6*3B
$GPRMC,023104.000,A,4531.5820,N,12240.5660,W,0.00,187.60,310312,,,A*7E
$GPVTG,187.60,T,,M,0.00,N,0.0,K,A*05
$GPGGA,023105.000,4531.5820,N,12240.5660,W,1,04,7.3,12.6,M,-19.4,M,,0000*53
$GPGSA,A,3,08,19,07,26,,,,,,,,,9.2,7.3,5.6*3D
$GPRMC,023105.000,A,4531.5820,N,12240.5660,W,0.00,187.60,310312,,,A*7F
$GPVTG,187.60,T,,M,0.00,N,0.0,K,A*05
$GPGGA,023106.000,4531.5820,N,12240.5660,W,1,04,7.3,12.6,M,-19.4,M,,0000*50
$GPGSA,A,3,08,19,07,26,,,,,,,,,9.2,7.3,5.6*3D
$GPRMC,023106.000,A,4531.5820,N,12240.5660,W,0.00,187.60,310312,,,A*7C
$GPVTG,187.60,T,,M,0.00,N,0.0,K,A*05
$GPGGA,023107.000,4531.5820,N,12240.5660,W,1,04,7.3,12.6,M,-19.4,M,,0000*51
$GPGSA,A,3,08,19,07,26,,,,,,,,,9.2,7.3,5.6*3D
$GPRMC,023107.000,A,4531.5820,N,12240.5660,W,0.00,187.60,310312,,,A*7D
$GPVTG,187.60,T,,M,0.00,N,0.0,K,A*05
$GPGGA,023108.000,4531.5820,N,12240.5660,W,1,04,7.3,12.6,M,-19.4,M,,0000*5E
$GPGSA,A,3,08,19,07,26,,,,,,,,,9.2,7.3,5.6*3D
$GPGSV,3,1,12,08,73,338,36,07,55,085,30,28,51,234,26,19,34,064,29*79
$GPGSV,3,2,12,26,33,311,28,13,22,153,,05,20,268,26,11,09,108,*7C
$GPGSV,3,3,12,03,09,038,,10,07,215,,17,05,184,,06,00,031,*71
$GPRMC,023108.000,A,4531.5820,N,12240.5660,W,0.00,187.60,310312,,,A*72
$GPVTG,187.60,T,,M,0.00,N,0.0,K,A*05
$GPGGA,023109.000,4531.5820,N,12240.5660,W,1,04,7.3,12.6,M,-19.4,M,,0000*5F
$GPGSA,A,3,08,19,07,26,,,,,,,,,9.2,7.3,5.6*3D
$GPRMC,023109.000,A,4531.5820,N,12240.5660,W,0.00,187.60,310312,,,A*73
$GPVTG,187.60,T,,M,0.00,N,0.0,K,A*05
$GPGGA,023110.000,4531.5820,N,12240.5660,W,1,04,7.3,12.6,M,-19.4,M,,0000*57
$GPGSA,A,3,08,19,07,26,,,,,,,,,9.2,7.3,5.6*3D
$GPRMC,023110.000,A,4531.5820,N,12240.5660,W,0.00,187.60,310312,,,A*7B
$GPVTG,187.60,T,,M,0.00,N,0.0,K,A*05
$GPGGA,023111.000,4531.5820,N,12240.5660,W,1,04,7.3,12.6,M,-19.4,M,,0000*56
$GPGSA,A,3,08,19,07,26,,,,,,,,,9.2,7.3,5.6*3D
$GPRMC,023111.000,A,4531.5820,N,12240.5660,W,0.00,187.60,310312,,,A*7A
$GPVTG,187.60,T,,M,0.00,N,0.0,K,A*05
$GPGGA,023112.000,4531.5820,N,12240.5660,W,1,04,7.3,12.6,M,-19.4,M,,0000*55
$GPGSA,A,3,08,19,07,26,,,,,,,,,9.2,7.3,5.6*3D
$GPRMC,023112.000,A,4531.5820,N,12240.5660,W,0.00,187.60,310312,,,A*79
$GPVTG,187.60,T,,M,0.00,N,0.0,K,A*05
$GPGGA,023113.000,4531.5820,N,12240.5660,W,1,04,7.3,12.6,M,-19.4,M,,0000*54
$GPGSA,A,3,08,19,07,26,,,,,,,,,9.2,7.3,5.6*3D
$GPGSV,3,1,12,08,73,338,36,07,55,085,30,28,51,234,26,19,34,063,29*7E
$GPGSV,3,2,12,26,33,311,28,13,22,153,,05,20,267,26,11,09,107,*7C
$GPGSV,3,3,12,03,09,038,,10,07,215,,17,05,184,,06,00,030,*70
$GPRMC,023113.000,A,4531.5820,N,12240.5660,W,0.00,187.60,310312,,,A*78
$GPVTG,187.60,T,,M,0.00,N,0.0,K,A*05
$GPGGA,023114.000,4531.5820,N,12240.5660,W,1,04,7.3,12.6,M,-19.4,M,,0000*53
$GPGSA,A,3,08,19,07,26,,,,,,,,,9.2,7.3,5.6*3D
$GPRMC,023114.000,A,4531.5820,N,12240.5660,W,0.00,187.60,310312,,,A*7F
$GPVTG,187.60,T,,M,0.00,N,0.0,K,A*05
$GPGGA,023115.000,4531.5820,N,12240.5660,W,1,04,7.3,12.6,M,-19.4,M,,0000*52
$GPGSA,A,3,08,19,07,26,,,,,,,,,9.2,7.3,5.6*3D
$GPRMC,023115.000,A,4531.5820,N,12240.5660,W,0.00,187.60,310312,,,A*7E
$GPVTG,187.60,T,,M,0.00,N,0.0,K,A*05
$GPGGA,023116.000,4531.5820,N,12240.5660,W,1,04,7.3,12.6,M,-19.4,M,,0000*51
$GPGSA,A,3,08,19,07,26,,,,,,,,,9.2,7.3,5.6*3D
$GPRMC,023116.000,A,4531.5820,N,12240.5660,W,0.00,187.60,310312,,,A*7D
$GPVTG,187.60,T,,M,0.00,N,0.0,K,A*05
$GPGGA,023117.000,4531.5820,N,12240.5660,W,1,04,7.3,12.6,M,-19.4,M,,0000*50
$GPGSA,A,3,08,19,07,26,,,,,,,,,9.2,7.3,5.6*3D
$GPRMC,023117.000,A,4531.5820,N,12240.5660,W,0.00,187.60,310312,,,A*7C
$GPVTG,187.60,T,,M,0.00,N,0.0,K,A*05
$GPGGA,023118.000,4531.5820,N,12240.5660,W,1,04,7.3,12.6,M,-19.4,M,,0000*5F
$GPGSA,A,3,08,19,07,26,,,,,,,,,9.2,7.3,5.6*3D
$GPGSV,3,1,12,08,73,338,36,07,55,085,29,28,51,234,26,19,34,063,29*76
